20:13:53.291> $GPGGA,171351.096,,,,,0,1,,,M,,M,,*46
20:13:53.291> $GPGLL,,,,,171351.096,V,N*75
20:13:53.354> $GPGSA,A,1,,,,,,,,,,,,,,,*1E
20:13:53.417> $GPGSV,3,1,11,13,83,266,16,28,49,043,33,15,49,302,,17,42,129,48*79
20:13:53.479> $GPGSV,3,2,11,19,30,152,44,30,29,083,47,20,21,262,,24,16,290,26*7C
20:13:53.541> $GPGSV,3,3,11,05,14,211,31,18,04,321,,11,03,048,38*40
20:13:53.603> $GPRMC,171351.096,V,,,,,0.01,48.05,030117,,,N*7E
20:13:53.665> $GPVTG,48.05,T,,M,0.01,N,0.02,K,N*08
20:13:54.290> $GPGGA,171352.096,,,,,0,1,,,M,,M,,*45
20:13:54.355> $GPGLL,,,,,171352.096,V,N*76
20:13:54.355> $GPGSA,A,1,,,,,,,,,,,,,,,*1E
20:13:54.417> $GPGSV,3,1,11,13,83,266,17,28,49,043,34,15,49,302,,17,42,129,48*7F
20:13:54.477> $GPGSV,3,2,11,19,30,152,44,30,29,083,47,20,21,262,,24,16,290,25*7F
20:13:54.542> $GPGSV,3,3,11,05,14,211,31,18,04,321,,11,03,048,38*40
20:13:54.604> $GPRMC,171352.096,V,,,,,0.02,48.04,030117,,,N*7F
20:13:54.665> $GPVTG,48.04,T,,M,0.02,N,0.05,K,N*0D
20:13:55.291> $GPGGA,171353.096,,,,,0,1,,,M,,M,,*44
20:13:55.291> $GPGLL,,,,,171353.096,V,N*77
20:13:55.353> $GPGSA,A,1,,,,,,,,,,,,,,,*1E
20:13:55.415> $GPGSV,3,1,11,13,83,266,18,28,49,043,34,15,49,302,,17,42,129,48*70
20:13:55.477> $GPGSV,3,2,11,19,30,152,45,30,29,083,47,20,21,262,,24,16,290,25*7E
20:13:55.541> $GPGSV,3,3,11,05,14,211,31,18,04,321,,11,03,048,38*40
20:13:55.604> $GPRMC,171353.096,V,,,,,0.04,48.03,030117,,,N*7F
20:13:55.665> $GPVTG,48.03,T,,M,0.04,N,0.07,K,N*0E
20:13:56.355> $GPGGA,171354.090,3818.9338,N,02638.1828,E,1,5,3.02,49.3,M,37.3,M,,*62
20:13:56.417> $GPGLL,3818.9338,N,02638.1828,E,171354.090,A,A*5A
20:13:56.477> $GPGSA,A,3,28,11,17,30,19,,,,,,,,3.16,3.02,0.91*08
20:13:56.539> $GPGSV,3,1,11,13,83,266,19,28,49,043,34,15,49,302,,17,42,129,48*71
20:13:56.604> $GPGSV,3,2,11,19,30,152,45,30,29,083,47,20,21,262,,24,16,290,25*7E
20:13:56.665> $GPGSV,3,3,11,05,14,211,31,18,04,321,,11,03,048,38*40
20:13:56.728> $GPRMC,171354.090,A,3818.9338,N,02638.1828,E,0.10,156.15,030117,,,A*6E
20:13:56.790> $GPVTG,156.15,T,,M,0.10,N,0.18,K,A*33
20:13:57.352> $GPGGA,171355.090,3818.9335,N,02638.1847,E,1,4,3.09,50.5,M,37.3,M,,*63
20:13:57.416> $GPGLL,3818.9335,N,02638.1847,E,171355.090,A,A*5F
20:13:57.416> $GPGSA,A,3,28,17,30,19,,,,,,,,,3.24,3.09,0.99*0A
20:13:57.540> $GPGSV,3,1,11,13,83,266,19,28,49,043,34,15,49,302,28,17,42,129,47*74
20:13:57.604> $GPGSV,3,2,11,19,30,152,45,30,29,083,47,20,21,262,,24,16,290,25*7E
20:13:57.666> $GPGSV,3,3,11,05,14,211,30,18,04,321,,11,03,048,38*41
20:13:57.728> $GPRMC,171355.090,A,3818.9335,N,02638.1847,E,0.24,125.01,030117,,,A*6D
20:13:57.728> $GPVTG,125.01,T,,M,0.24,N,0.45,K,A*3D
20:13:59.228> $GPGGA,171357.000,3818.9335,N,02638.1857,E,1,4,3.09,51.0,M,37.3,M,,*6D
20:13:59.290> $GPGLL,3818.9335,N,02638.1857,E,171357.000,A,A*55
20:13:59.353> $GPGSA,A,3,28,17,30,19,,,,,,,,,3.24,3.09,0.99*0A
20:13:59.414> $GPGSV,3,1,11,13,83,266,19,28,49,043,34,15,49,302,29,17,42,129,47*75
20:13:59.479> $GPGSV,3,2,11,19,30,152,45,30,29,083,47,20,21,262,,24,16,290,25*7E
20:13:59.542> $GPGSV,3,3,11,05,14,211,30,18,04,321,,11,03,048,38*41
20:13:59.603> $GPRMC,171357.000,A,3818.9335,N,02638.1857,E,0.43,121.63,030117,,,A*66
20:13:59.667> $GPVTG,121.63,T,,M,0.43,N,0.79,K,A*33
20:14:00.228> $GPGGA,171358.000,3818.9338,N,02638.1840,E,1,4,3.09,47.2,M,37.3,M,,*6C
20:14:00.290> $GPGLL,3818.9338,N,02638.1840,E,171358.000,A,A*51
20:14:00.354> $GPGSA,A,3,28,17,30,19,,,,,,,,,3.24,3.09,0.99*0A
20:14:00.417> $GPGSV,3,1,11,13,83,266,19,28,49,043,35,15,49,302,30,17,42,129,47*7C
20:14:00.478> $GPGSV,3,2,11,19,30,152,45,30,29,083,47,20,21,262,,24,16,290,25*7E
20:14:00.539> $GPGSV,3,3,11,05,14,211,29,18,04,321,,11,03,048,38*49
20:14:00.603> $GPRMC,171358.000,A,3818.9338,N,02638.1840,E,0.38,120.72,030117,,,A*6F
20:14:00.666> $GPVTG,120.72,T,,M,0.38,N,0.71,K,A*36
20:14:01.227> $GPGGA,171359.000,3818.9330,N,02638.1857,E,1,4,3.09,43.0,M,37.3,M,,*65
20:14:01.293> $GPGLL,3818.9330,N,02638.1857,E,171359.000,A,A*5E
20:14:01.353> $GPGSA,A,3,28,17,30,19,,,,,,,,,3.24,3.09,0.99*0A
20:14:01.414> $GPGSV,3,1,11,13,83,266,18,28,49,043,35,15,49,302,31,17,42,129,47*7C
20:14:01.477> $GPGSV,3,2,11,19,30,152,45,30,29,083,47,20,21,262,,24,16,290,25*7E
20:14:01.540> $GPGSV,3,3,11,05,14,211,29,18,04,321,,11,03,048,38*49
20:14:01.604> $GPRMC,171359.000,A,3818.9330,N,02638.1857,E,0.37,137.92,030117,,,A*67
20:14:01.668> $GPVTG,137.92,T,,M,0.37,N,0.68,K,A*39
20:14:02.229> $GPGGA,171400.000,3818.9342,N,02638.1845,E,1,4,3.09,40.6,M,37.3,M,,*6D
20:14:02.292> $GPGLL,3818.9342,N,02638.1845,E,171400.000,A,A*53
20:14:02.354> $GPGSA,A,3,28,17,30,19,,,,,,,,,3.24,3.09,0.99*0A
20:14:02.415> $GPGSV,3,1,11,13,83,266,18,28,49,043,36,15,49,302,32,17,42,129,47*7C
20:14:02.478> $GPGSV,3,2,11,19,30,152,45,30,29,083,47,20,21,262,,24,16,290,25*7E
20:14:02.539> $GPGSV,3,3,11,05,14,211,28,18,04,321,,11,03,048,37*47
20:14:02.604> $GPRMC,171400.000,A,3818.9342,N,02638.1845,E,0.74,128.12,030117,,,A*6B
20:14:02.666> $GPVTG,128.12,T,,M,0.74,N,1.37,K,A*33
20:14:03.227> $GPGGA,171401.000,3818.9328,N,02638.1883,E,1,4,3.09,47.7,M,37.3,M,,*6C
20:14:03.290> $GPGLL,3818.9328,N,02638.1883,E,171401.000,A,A*54
20:14:03.355> $GPGSA,A,3,28,17,30,19,,,,,,,,,3.24,3.09,0.99*0A
20:14:03.416> $GPGSV,3,1,11,13,83,266,17,28,49,043,36,15,49,302,32,17,42,129,47*73
20:14:03.478> $GPGSV,3,2,11,19,30,152,45,30,29,083,47,20,21,262,,24,16,290,25*7E
20:14:03.542> $GPGSV,3,3,11,05,14,211,27,18,04,321,,11,03,048,36*49
20:14:03.603> $GPRMC,171401.000,A,3818.9328,N,02638.1883,E,0.09,205.02,030117,,,A*6B
20:14:03.665> $GPVTG,205.02,T,,M,0.09,N,0.16,K,A*36
20:14:04.228> $GPGGA,171402.000,3818.9330,N,02638.1880,E,1,4,3.09,43.9,M,37.3,M,,*6F
20:14:04.290> $GPGLL,3818.9330,N,02638.1880,E,171402.000,A,A*5D
20:14:04.352> $GPGSA,A,3,28,17,30,19,,,,,,,,,3.24,3.09,0.99*0A
20:14:04.417> $GPGSV,3,1,11,13,83,266,16,28,49,043,36,15,49,302,32,17,42,129,47*72
20:14:04.479> $GPGSV,3,2,11,19,30,152,45,30,29,083,47,20,21,262,,24,16,290,24*7F
20:14:04.541> $GPGSV,3,3,11,05,14,211,26,18,04,321,,11,03,048,36*48
20:14:04.604> $GPRMC,171402.000,A,3818.9330,N,02638.1880,E,0.45,126.85,030117,,,A*67
20:14:04.667> $GPVTG,126.85,T,,M,0.45,N,0.83,K,A*3F
20:14:05.228> $GPGGA,171403.000,3818.9330,N,02638.1886,E,1,4,3.09,40.4,M,37.3,M,,*66
20:14:05.292> $GPGLL,3818.9330,N,02638.1886,E,171403.000,A,A*5A
20:14:05.292> $GPGSA,A,3,28,17,30,19,,,,,,,,,3.24,3.09,0.99*0A
20:14:05.415> $GPGSV,3,1,11,13,83,266,16,28,49,043,36,15,49,302,32,17,42,129,47*72
20:14:05.479> $GPGSV,3,2,11,19,30,152,45,30,29,083,47,20,21,262,,24,16,290,24*7F
20:14:05.543> $GPGSV,3,3,11,05,14,211,26,18,04,321,,11,03,048,36*48
20:14:05.603> $GPRMC,171403.000,A,3818.9330,N,02638.1886,E,0.27,121.18,030117,,,A*67
20:14:05.666> $GPVTG,121.18,T,,M,0.27,N,0.50,K,A*36
20:14:06.230> $GPGGA,171404.000,3818.9329,N,02638.1885,E,1,4,3.09,39.9,M,37.3,M,,*69
20:14:06.289> $GPGLL,3818.9329,N,02638.1885,E,171404.000,A,A*56
20:14:06.289> $GPGSA,A,3,28,17,30,19,,,,,,,,,3.24,3.09,0.99*0A
20:14:06.418> $GPGSV,3,1,11,13,83,266,15,28,49,043,36,15,49,302,32,17,42,129,47*71
20:14:06.478> $GPGSV,3,2,11,19,30,152,45,30,29,083,47,20,21,262,,24,16,290,24*7F
20:14:06.540> $GPGSV,3,3,11,05,14,211,26,18,04,321,,11,03,048,36*48
20:14:06.603> $GPRMC,171404.000,A,3818.9329,N,02638.1885,E,1.04,287.61,030117,,,A*6A
20:14:06.603> $GPVTG,287.61,T,,M,1.04,N,1.93,K,A*39
20:14:07.230> $GPGGA,171405.000,3818.9327,N,02638.1892,E,1,4,3.09,39.0,M,37.3,M,,*69
20:14:07.292> $GPGLL,3818.9327,N,02638.1892,E,171405.000,A,A*5F
20:14:07.292> $GPGSA,A,3,28,17,30,19,,,,,,,,,3.24,3.09,0.99*0A
20:14:07.416> $GPGSV,3,1,11,13,83,266,15,28,49,043,37,15,49,302,32,17,42,129,47*70
20:14:07.478> $GPGSV,3,2,11,19,30,152,45,30,29,083,47,20,21,262,,24,16,290,24*7F
20:14:07.543> $GPGSV,3,3,11,05,14,211,25,18,04,321,,11,03,048,36*4B
20:14:07.604> $GPRMC,171405.000,A,3818.9327,N,02638.1892,E,0.45,118.44,030117,,,A*65
20:14:07.664> $GPVTG,118.44,T,,M,0.45,N,0.83,K,A*3F
20:14:08.228> $GPGGA,171406.000,3818.9328,N,02638.1900,E,1,4,3.09,40.4,M,37.3,M,,*65
20:14:08.291> $GPGLL,3818.9328,N,02638.1900,E,171406.000,A,A*59
20:14:08.291> $GPGSA,A,3,28,17,30,19,,,,,,,,,3.24,3.09,0.99*0A
20:14:08.417> $GPGSV,3,1,11,13,83,266,15,28,49,043,37,15,49,302,32,17,42,129,47*70
20:14:08.480> $GPGSV,3,2,11,19,30,152,45,30,29,083,47,20,21,262,,24,16,290,24*7F
20:14:08.540> $GPGSV,3,3,11,05,14,211,25,18,04,321,,11,03,048,36*4B
20:14:08.604> $GPRMC,171406.000,A,3818.9328,N,02638.1900,E,0.46,274.04,030117,,,A*6D
20:14:08.604> $GPVTG,274.04,T,,M,0.46,N,0.85,K,A*37
20:14:09.229> $GPGGA,171407.000,3818.9333,N,02638.1883,E,1,4,3.09,37.2,M,37.3,M,,*62
20:14:09.290> $GPGLL,3818.9333,N,02638.1883,E,171407.000,A,A*58
20:14:09.352> $GPGSA,A,3,28,17,30,19,,,,,,,,,3.24,3.09,0.99*0A
20:14:09.416> $GPGSV,3,1,11,13,83,264,16,28,49,043,37,15,49,302,33,17,42,129,47*70
20:14:09.479> $GPGSV,3,2,11,19,30,152,45,30,29,083,47,20,21,262,,24,16,290,23*78
20:14:09.541> $GPGSV,3,3,11,05,14,211,24,18,04,321,,11,03,048,36*4A
20:14:09.602> $GPRMC,171407.000,A,3818.9333,N,02638.1883,E,0.30,263.14,030117,,,A*6A
20:14:09.665> $GPVTG,263.14,T,,M,0.30,N,0.56,K,A*3F
20:14:10.228> $GPGGA,171408.000,3818.9326,N,02638.1911,E,1,4,3.09,36.3,M,37.3,M,,*63
20:14:10.292> $GPGLL,3818.9326,N,02638.1911,E,171408.000,A,A*59
20:14:10.292> $GPGSA,A,3,28,17,30,19,,,,,,,,,3.24,3.09,0.99*0A
20:14:10.416> $GPGSV,3,1,11,13,83,264,18,28,49,043,37,15,49,302,33,17,42,129,46*7F
20:14:10.477> $GPGSV,3,2,11,19,30,152,45,30,29,083,47,20,21,262,,24,16,290,23*78
20:14:10.541> $GPGSV,3,3,11,05,14,211,24,18,04,321,,11,03,048,36*4A
20:14:10.604> $GPRMC,171408.000,A,3818.9326,N,02638.1911,E,0.65,280.05,030117,,,A*66
20:14:10.604> $GPVTG,280.05,T,,M,0.65,N,1.21,K,A*33
20:14:11.228> $GPGGA,171409.000,3818.9321,N,02638.1906,E,1,4,3.09,36.0,M,37.3,M,,*60
20:14:11.290> $GPGLL,3818.9321,N,02638.1906,E,171409.000,A,A*59
20:14:11.353> $GPGSA,A,3,28,17,30,19,,,,,,,,,3.24,3.09,0.99*0A
20:14:11.416> $GPGSV,3,1,11,13,83,264,25,28,49,043,37,15,49,302,33,17,42,129,46*71
20:14:11.477> $GPGSV,3,2,11,19,30,152,45,30,29,083,47,20,21,262,,24,16,290,23*78
20:14:11.541> $GPGSV,3,3,11,05,14,211,24,18,04,321,,11,03,048,36*4A
20:14:11.603> $GPRMC,171409.000,A,3818.9321,N,02638.1906,E,0.65,110.23,030117,,,A*68
20:14:11.665> $GPVTG,110.23,T,,M,0.65,N,1.21,K,A*3D
20:14:12.228> $GPGGA,171410.000,3818.9315,N,02638.1913,E,1,4,3.09,37.1,M,37.3,M,,*6B
20:14:12.291> $GPGLL,3818.9315,N,02638.1913,E,171410.000,A,A*52
20:14:12.291> $GPGSA,A,3,28,17,30,19,,,,,,,,,3.24,3.09,0.99*0A
20:14:12.416> $GPGSV,3,1,11,13,83,264,26,28,49,043,38,15,49,302,33,17,42,129,46*7D
20:14:12.480> $GPGSV,3,2,11,19,30,152,45,30,29,083,47,20,21,262,,24,16,290,23*78
20:14:12.540> $GPGSV,3,3,11,05,14,211,24,18,04,321,,11,03,048,36*4A
20:14:12.603> $GPRMC,171410.000,A,3818.9315,N,02638.1913,E,0.15,114.73,030117,,,A*65
20:14:12.665> $GPVTG,114.73,T,,M,0.15,N,0.29,K,A*32
20:14:13.229> $GPGGA,171411.000,3818.9315,N,02638.1913,E,1,4,3.09,39.2,M,37.3,M,,*67
20:14:13.291> $GPGLL,3818.9315,N,02638.1913,E,171411.000,A,A*53
20:14:13.291> $GPGSA,A,3,28,17,30,19,,,,,,,,,3.24,3.09,0.99*0A
20:14:13.415> $GPGSV,3,1,11,13,83,264,27,28,49,043,38,15,49,302,33,17,43,129,46*7D
20:14:13.477> $GPGSV,3,2,11,19,30,152,45,30,29,083,47,20,21,262,,24,16,290,23*78
20:14:13.540> $GPGSV,3,3,11,05,14,211,24,18,04,321,,11,03,048,36*4A
20:14:13.604> $GPRMC,171411.000,A,3818.9315,N,02638.1913,E,0.13,73.79,030117,,,A*58
20:14:13.666> $GPVTG,73.79,T,,M,0.13,N,0.24,K,A*03
20:14:14.229> $GPGGA,171412.000,3818.9316,N,02638.1907,E,1,4,3.09,38.8,M,37.3,M,,*69
20:14:14.291> $GPGLL,3818.9316,N,02638.1907,E,171412.000,A,A*56
20:14:14.291> $GPGSA,A,3,28,17,30,19,,,,,,,,,3.24,3.09,0.99*0A
20:14:14.417> $GPGSV,3,1,11,13,83,264,27,28,49,043,38,15,49,302,33,17,43,129,46*7D
20:14:14.478> $GPGSV,3,2,11,19,30,152,45,30,29,083,47,20,21,262,,24,16,290,23*78
20:14:14.542> $GPGSV,3,3,11,05,14,211,25,18,04,321,,11,03,048,37*4A
20:14:14.605> $GPRMC,171412.000,A,3818.9316,N,02638.1907,E,0.36,112.99,030117,,,A*62
20:14:14.605> $GPVTG,112.99,T,,M,0.36,N,0.67,K,A*3B
20:14:15.229> $GPGGA,171413.000,3818.9316,N,02638.1900,E,1,4,3.09,42.2,M,37.3,M,,*68
20:14:15.289> $GPGLL,3818.9316,N,02638.1900,E,171413.000,A,A*50
20:14:15.354> $GPGSA,A,3,28,17,30,19,,,,,,,,,3.24,3.09,0.99*0A
20:14:15.415> $GPGSV,3,1,11,13,83,264,27,28,49,043,38,15,49,302,32,17,43,129,46*7C
20:14:15.479> $GPGSV,3,2,11,19,31,152,45,30,29,083,47,20,21,262,,24,16,290,23*79
20:14:15.539> $GPGSV,3,3,11,05,14,211,26,18,04,321,,11,03,048,37*49
20:14:15.605> $GPRMC,171413.000,A,3818.9316,N,02638.1900,E,0.43,281.43,030117,,,A*68
20:14:15.667> $GPVTG,281.43,T,,M,0.43,N,0.80,K,A*3E
20:14:16.228> $GPGGA,171414.000,3818.9311,N,02638.1911,E,1,4,3.09,43.1,M,37.3,M,,*6A
20:14:16.290> $GPGLL,3818.9311,N,02638.1911,E,171414.000,A,A*50
20:14:16.290> $GPGSA,A,3,28,17,30,19,,,,,,,,,3.24,3.09,0.99*0A
20:14:16.416> $GPGSV,3,1,11,13,83,264,27,28,49,043,38,15,49,302,31,17,43,129,46*7F
20:14:16.477> $GPGSV,3,2,11,19,31,152,45,30,29,083,47,20,21,262,,24,16,290,23*79
20:14:16.539> $GPGSV,3,3,11,05,14,211,27,18,04,321,,11,03,048,37*48
20:14:16.605> $GPRMC,171414.000,A,3818.9311,N,02638.1911,E,0.53,297.02,030117,,,A*6B
20:14:16.605> $GPVTG,297.02,T,,M,0.53,N,0.99,K,A*35
20:14:17.228> $GPGGA,171415.000,3818.9312,N,02638.1902,E,1,4,3.09,42.3,M,37.3,M,,*69
20:14:17.290> $GPGLL,3818.9312,N,02638.1902,E,171415.000,A,A*50
20:14:17.353> $GPGSA,A,3,28,17,30,19,,,,,,,,,3.24,3.09,0.99*0A
20:14:17.416> $GPGSV,3,1,11,13,83,264,27,28,49,043,38,15,49,302,30,17,43,129,46*7E
20:14:17.479> $GPGSV,3,2,11,19,31,152,45,30,29,083,47,20,21,262,,24,16,290,23*79
20:14:17.539> $GPGSV,3,3,11,05,14,211,28,18,04,321,,11,03,048,37*47
20:14:17.602> $GPRMC,171415.000,A,3818.9312,N,02638.1902,E,0.11,290.71,030117,,,A*6E
20:14:17.666> $GPVTG,290.71,T,,M,0.11,N,0.20,K,A*32
20:14:18.228> $GPGGA,171416.000,3818.9307,N,02638.1903,E,1,4,3.09,43.5,M,37.3,M,,*68
20:14:18.290> $GPGLL,3818.9307,N,02638.1903,E,171416.000,A,A*56
20:14:18.354> $GPGSA,A,3,28,17,30,19,,,,,,,,,3.24,3.09,0.99*0A
20:14:18.415> $GPGSV,3,1,11,13,83,264,27,28,49,043,38,15,49,302,29,17,43,129,46*76
20:14:18.480> $GPGSV,3,2,11,19,31,152,45,30,29,083,47,20,21,262,,24,16,290,23*79
20:14:18.542> $GPGSV,3,3,11,05,14,211,28,18,04,321,,11,03,048,38*48
20:14:18.602> $GPRMC,171416.000,A,3818.9307,N,02638.1903,E,0.80,292.09,030117,,,A*6D
20:14:18.666> $GPVTG,292.09,T,,M,0.80,N,1.49,K,A*39
20:14:19.230> $GPGGA,171417.000,3818.9310,N,02638.1898,E,1,4,3.09,44.4,M,37.3,M,,*6A
20:14:19.290> $GPGLL,3818.9310,N,02638.1898,E,171417.000,A,A*52
20:14:19.352> $GPGSA,A,3,28,17,30,19,,,,,,,,,3.24,3.09,0.99*0A
20:14:19.414> $GPGSV,3,1,11,13,83,264,27,28,49,043,38,15,49,302,28,17,43,129,45*74
20:14:19.480> $GPGSV,3,2,11,19,31,152,45,30,29,083,48,20,21,262,,24,16,290,23*76
20:14:19.543> $GPGSV,3,3,11,05,14,211,28,18,04,321,,11,03,048,38*48
20:14:19.604> $GPRMC,171417.000,A,3818.9310,N,02638.1898,E,0.39,293.47,030117,,,A*60
20:14:19.665> $GPVTG,293.47,T,,M,0.39,N,0.71,K,A*3A
20:14:20.227> $GPGGA,171418.000,3818.9310,N,02638.1883,E,1,4,3.09,45.7,M,37.3,M,,*6D
20:14:20.290> $GPGLL,3818.9310,N,02638.1883,E,171418.000,A,A*57
20:14:20.353> $GPGSA,A,3,28,17,30,19,,,,,,,,,3.24,3.09,0.99*0A
20:14:20.417> $GPGSV,3,1,11,13,83,264,26,28,49,043,38,15,49,302,27,17,43,129,45*7A
20:14:20.478> $GPGSV,3,2,11,19,31,152,45,30,29,083,48,20,21,262,,24,17,290,23*77
20:14:20.541> $GPGSV,3,3,11,05,14,211,28,18,04,321,,11,03,048,38*48
20:14:20.603> $GPRMC,171418.000,A,3818.9310,N,02638.1883,E,0.41,78.49,030117,,,A*53
20:14:20.666> $GPVTG,78.49,T,,M,0.41,N,0.75,K,A*08
20:14:21.229> $GPGGA,171419.000,3818.9308,N,02638.1869,E,1,4,3.09,46.5,M,37.3,M,,*60
20:14:21.293> $GPGLL,3818.9308,N,02638.1869,E,171419.000,A,A*5B
20:14:21.293> $GPGSA,A,3,28,17,30,19,,,,,,,,,3.24,3.09,0.99*0A
20:14:21.417> $GPGSV,3,1,11,13,83,264,25,28,49,043,37,15,49,302,26,17,43,129,45*77
20:14:21.478> $GPGSV,3,2,11,19,31,152,44,30,29,083,48,20,21,262,,24,17,290,23*76
20:14:21.540> $GPGSV,3,3,11,05,14,211,28,18,04,321,,11,03,048,38*48
20:14:21.604> $GPRMC,171419.000,A,3818.9308,N,02638.1869,E,0.07,36.05,030117,,,A*5F
20:14:21.665> $GPVTG,36.05,T,,M,0.07,N,0.13,K,A*08
20:14:22.228> $GPGGA,171420.000,3818.9317,N,02638.1851,E,1,4,3.09,49.3,M,37.3,M,,*66
20:14:22.293> $GPGLL,3818.9317,N,02638.1851,E,171420.000,A,A*54
20:14:22.354> $GPGSA,A,3,28,17,30,19,,,,,,,,,3.24,3.09,0.99*0A
20:14:22.415> $GPGSV,3,1,11,13,83,264,23,28,49,043,36,15,49,302,25,17,43,129,45*73
20:14:22.478> $GPGSV,3,2,11,19,31,152,44,30,29,083,48,20,21,262,,24,17,290,23*76
20:14:22.540> $GPGSV,3,3,11,05,14,211,28,18,04,321,,11,03,048,38*48
20:14:22.604> $GPRMC,171420.000,A,3818.9317,N,02638.1851,E,0.11,30.98,030117,,,A*55
20:14:22.665> $GPVTG,30.98,T,,M,0.11,N,0.21,K,A*0C
20:14:23.228> $GPGGA,171421.000,3818.9325,N,02638.1831,E,1,4,3.09,52.0,M,37.3,M,,*69
20:14:23.290> $GPGLL,3818.9325,N,02638.1831,E,171421.000,A,A*52
20:14:23.354> $GPGSA,A,3,28,17,30,19,,,,,,,,,3.24,3.09,0.99*0A
20:14:23.415> $GPGSV,3,1,11,13,83,264,21,28,49,043,36,15,49,302,24,17,43,129,44*71
20:14:23.480> $GPGSV,3,2,11,19,31,152,44,30,29,083,48,20,21,262,,24,17,290,23*76
20:14:23.540> $GPGSV,3,3,11,05,14,211,29,18,04,321,,11,03,048,38*49
20:14:23.603> $GPRMC,171421.000,A,3818.9325,N,02638.1831,E,0.31,270.95,030117,,,A*6A
20:14:23.666> $GPVTG,270.95,T,,M,0.31,N,0.58,K,A*3B
20:14:24.229> $GPGGA,171422.000,3818.9330,N,02638.1812,E,1,4,3.09,54.6,M,37.3,M,,*6F
20:14:24.291> $GPGLL,3818.9330,N,02638.1812,E,171422.000,A,A*54
20:14:24.353> $GPGSA,A,3,28,17,30,19,,,,,,,,,3.24,3.09,0.99*0A
20:14:24.417> $GPGSV,3,1,11,13,83,264,19,28,49,043,36,15,49,302,23,17,43,129,44*7D
20:14:24.480> $GPGSV,3,2,11,19,31,152,43,30,29,083,48,20,21,262,,24,17,290,24*76
20:14:24.542> $GPGSV,3,3,11,05,14,211,29,18,04,321,,11,03,048,39*48
20:14:24.603> $GPRMC,171422.000,A,3818.9330,N,02638.1812,E,0.12,152.60,030117,,,A*64
20:14:24.666> $GPVTG,152.60,T,,M,0.12,N,0.22,K,A*3E

