$GPGLL,,,,,011638.932,V,N*7F

$GPGLL,,,,,011639.932,V,N*7E

$GPGLL,,,,,011640.932,V,N*70

$GPGLL,,,,,011641.932,V,N*71

$GPGLL,,,,,011642.932,V,N*72

$GPGLL,,,,,011643.932,V,N*73

$GPGLL,,,,,011644.932,V,N*74

$GPGLL,,,,,011645.932,V,N*75

$GPGLL,,,,,011646.932,V,N*76

$GPGLL,,,,,011647.932,V,N*77

$GPGLL,,,,,011648.932,V,N*78

$GPGLL,,,,,011649.932,V,N*79

$GPGLL,,,,,011650.932,V,N*71

$GPGLL,,,,,011651.932,V,N*70

$GPGLL,,,,,011652.932,V,N*73

$GPGLL,,,,,011653.932,V,N*72

$GPGLL,,,,,011654.932,V,N*75

$GPGLL,,,,,011655.932,V,N*74

$GPGLL,,,,,011656.932,V,N*77

$GPGLL,,,,,011657.932,V,N*76

$GPGLL,,,,,011658.932,V,N*79

$GPGLL,,,,,011659.932,V,N*78

$GPGLL,,,,,011700.932,V,N*75

$GPGLL,,,,,011701.932,V,N*74

$GPGLL,,,,,011702.932,V,N*77

$GPGLL,,,,,011703.932,V,N*76

$GPGLL,,,,,011704.932,V,N*71

$GPGLL,,,,,011705.932,V,N*70

$GPGLL,,,,,011706.932,V,N*73

$GPGLL,,,,,011707.932,V,N*72

$GPGLL,,,,,011708.932,V,N*7D

$GPGLL,,,,,011709.932,V,N*7C

$GPGLL,,,,,011710.932,V,N*74

$GPGLL,,,,,011711.932,V,N*75

$GPGLL,,,,,011712.932,V,N*76

$GPGLL,,,,,011713.932,V,N*77

$GPGLL,,,,,011714.932,V,N*70

$GPGLL,,,,,011715.932,V,N*71

$GPGLL,,,,,011716.932,V,N*72

$GPGLL,,,,,011717.932,V,N*73

$GPGLL,,,,,011718.932,V,N*7C

$GPGLL,,,,,011719.932,V,N*7D

$GPGLL,,,,,011720.932,V,N*77

$GPGLL,,,,,011721.932,V,N*76

$GPGLL,,,,,011722.932,V,N*75

$GPGLL,,,,,011723.932,V,N*74

$GPGLL,,,,,011724.932,V,N*73

$GPGLL,,,,,011725.932,V,N*72

$GPGLL,,,,,011726.932,V,N*71

$GPGLL,,,,,011727.932,V,N*70

$GPGLL,,,,,011728.932,V,N*7F

$GPGLL,,,,,011729.932,V,N*7E

$GPGLL,,,,,011730.932,V,N*76

$GPGLL,,,,,011731.932,V,N*77

$GPGLL,,,,,011732.932,V,N*74

$GPGLL,,,,,011733.932,V,N*75

$GPGLL,,,,,011734.932,V,N*72

$GPGLL,,,,,011735.932,V,N*73

$GPGLL,,,,,011736.932,V,N*70

$GPGLL,,,,,011737.932,V,N*71

$GPGLL,,,,,011738.932,V,N*7E

$GPGLL,,,,,011739.932,V,N*7F

$GPGLL,,,,,011740.932,V,N*71

$GPGLL,,,,,011741.932,V,N*70

$GPGLL,,,,,011742.932,V,N*73

$GPGLL,,,,,011743.932,V,N*72

$GPGLL,,,,,011744.932,V,N*75

$GPGLL,,,,,011745.932,V,N*74

$GPGLL,,,,,011746.932,V,N*77

$GPGLL,,,,,011747.932,V,N*76

$GPGLL,,,,,011748.932,V,N*79

$GPGLL,,,,,011749.932,V,N*78

$GPGLL,,,,,011750.932,V,N*70

$GPGLL,,,,,011751.932,V,N*71

$GPGLL,,,,,011752.932,V,N*72

$GPGLL,,,,,011753.932,V,N*73

$GPGLL,,,,,011754.932,V,N*74

$GPGLL,,,,,011755.932,V,N*75

$GPGLL,,,,,011756.932,V,N*76

$GPGLL,,,,,011757.932,V,N*77

$GPGLL,,,,,011758.932,V,N*78

$GPGLL,,,,,011759.932,V,N*79

$GPGLL,,,,,011800.932,V,N*7A

$GPGLL,,,,,011801.932,V,N*7B

$GPGLL,,,,,011802.932,V,N*78

$GPGLL,,,,,011803.932,V,N*79

$GPGLL,,,,,011804.932,V,N*7E

$GPGLL,,,,,011805.932,V,N*7F

$GPGLL,,,,,011806.932,V,N*7C

$GPGLL,,,,,011807.932,V,N*7D

$GPGLL,,,,,011808.932,V,N*72

$GPGLL,,,,,011809.540,V,N*7A

$GPGLL,,,,,011810.540,V,N*72

$GPGLL,,,,,011809.100,V,N*7A

$GPGLL,,,,,011810.100,V,N*72

$GPGLL,,,,,011811.100,V,N*73

$GPGLL,,,,,011812.100,V,N*70

$GPGLL,,,,,011813.080,V,N*78

$GPGLL,,,,,011813.300,V,N*73

$GPGLL,,,,,011814.300,V,N*74

$GPGLL,,,,,011815.300,V,N*75

$GPGLL,,,,,011816.300,V,N*76

$GPGLL,,,,,011817.300,V,N*77

$GPGLL,,,,,011818.300,V,N*78

$GPGLL,,,,,011819.080,V,N*72

$GPGLL,,,,,011819.300,V,N*79

$GPGLL,,,,,011820.300,V,N*73

$GPGLL,,,,,011821.300,V,N*72

$GPGLL,,,,,011822.300,V,N*71

$GPGLL,,,,,011823.300,V,N*70

$GPGLL,,,,,011824.300,V,N*77

$GPGLL,,,,,011825.081,V,N*7C

$GPGLL,,,,,011825.301,V,N*77

$GPGLL,,,,,011826.301,V,N*74

$GPGLL,,,,,011827.301,V,N*75

$GPGLL,,,,,011828.301,V,N*7A

$GPGLL,,,,,011829.301,V,N*7B

$GPGLL,,,,,011830.301,V,N*73

$GPGLL,,,,,011831.081,V,N*79

$GPGLL,,,,,011831.297,V,N*7C

$GPGLL,,,,,011832.297,V,N*7F

$GPGLL,,,,,011833.297,V,N*7E

$GPGLL,,,,,011834.297,V,N*79

$GPGLL,,,,,011835.297,V,N*78

$GPGLL,,,,,011836.297,V,N*7B

$GPGLL,,,,,011837.097,V,N*78

$GPGLL,,,,,011838.097,V,N*77

$GPGLL,,,,,011839.097,V,N*76

$GPGLL,,,,,011840.097,V,N*78

$GPGLL,,,,,011841.097,V,N*79

$GPGLL,,,,,011842.097,V,N*7A

$GPGLL,,,,,011843.097,V,N*7B

$GPGLL,,,,,011844.097,V,N*7C

$GPGLL,,,,,011845.097,V,N*7D

$GPGLL,,,,,011846.097,V,N*7E

$GPGLL,,,,,011847.097,V,N*7F

$GPGLL,,,,,011848.097,V,N*70

$GPGLL,,,,,011849.084,V,N*73

$GPGLL,,,,,011849.304,V,N*78

$GPGLL,,,,,011850.304,V,N*70

$GPGLL,,,,,011851.304,V,N*71

$GPGLL,,,,,011852.304,V,N*72

$GPGLL,,,,,011853.304,V,N*73

$GPGLL,,,,,011854.304,V,N*74

$GPGLL,,,,,011855.092,V,N*79

$GPGLL,3818.9383,N,02638.1801,E,011856.092,A,A*5D

$GPGLL,3818.9386,N,02638.1784,E,011858.000,A,A*5F

$GPGLL,3818.9383,N,02638.1793,E,011859.000,A,A*5D

$GPGLL,3818.9386,N,02638.1787,E,011900.000,A,A*50

$GPGLL,3818.9381,N,02638.1809,E,011901.000,A,A*5F

$GPGLL,3818.9353,N,02638.1839,E,011902.000,A,A*50

$GPGLL,3818.9392,N,02638.1766,E,011903.000,A,A*59

$GPGLL,3818.9404,N,02638.1701,E,011904.000,A,A*57

$GPGLL,3818.9394,N,02638.1732,E,011905.000,A,A*58

$GPGLL,3818.9391,N,02638.1741,E,011906.000,A,A*5A

$GPGLL,3818.9387,N,02638.1776,E,011907.000,A,A*58

$GPGLL,3818.9352,N,02638.1843,E,011908.000,A,A*56

$GPGLL,3818.9333,N,02638.1863,E,011909.000,A,A*52

$GPGLL,3818.9346,N,02638.1894,E,011910.000,A,A*50

$GPGLL,3818.9325,N,02638.1910,E,011911.000,A,A*59

$GPGLL,3818.9324,N,02638.1929,E,011912.000,A,A*51

$GPGLL,3818.9326,N,02638.1937,E,011913.000,A,A*5D
	

$GPGLL,3818.9414,N,02638.1586,E,011915.000,A,A*5B

$GPGLL,3818.9421,N,02638.1566,E,011916.000,A,A*50

$GPGLL,3818.9430,N,02638.1547,E,011917.000,A,A*52

$GPGLL,3818.9447,N,02638.1486,E,011918.000,A,A*51

$GPGLL,3818.9457,N,02638.1435,E,011919.000,A,A*59

$GPGLL,3818.9447,N,02638.1477,E,011920.000,A,A*54

$GPGLL,3818.9455,N,02638.1469,E,011921.000,A,A*59

$GPGLL,3818.9451,N,02638.1569,E,011922.000,A,A*5F

$GPGLL,3818.9455,N,02638.1591,E,011923.000,A,A*5D

$GPGLL,3818.9450,N,02638.1704,E,011924.000,A,A*51

$GPGLL,3818.9455,N,02638.1701,E,011925.000,A,A*50

$GPGLL,3818.9459,N,02638.1693,E,011926.000,A,A*55

$GPGLL,3818.9465,N,02638.1688,E,011927.000,A,A*51

$GPGLL,3818.9473,N,02638.1687,E,011928.000,A,A*56

$GPGLL,3818.9480,N,02638.1685,E,011929.000,A,A*59

$GPGLL,3818.9485,N,02638.1684,E,011930.000,A,A*55

$GPGLL,3818.9489,N,02638.1681,E,011931.000,A,A*5D

$GPGLL,3818.9488,N,02638.1677,E,011932.000,A,A*56

$GPGLL,3818.9485,N,02638.1671,E,011933.000,A,A*5C

$GPGLL,3818.9480,N,02638.1668,E,011934.000,A,A*56

$GPGLL,3818.9474,N,02638.1663,E,011935.000,A,A*57

$GPGLL,3818.9466,N,02638.1673,E,011936.000,A,A*56

$GPGLL,3818.9459,N,02638.1685,E,011937.000,A,A*52

$GPGLL,3818.9452,N,02638.1698,E,011938.000,A,A*5A

$GPGLL,3818.9448,N,02638.1701,E,011939.000,A,A*51

$GPGLL,3818.9445,N,02638.1705,E,011940.000,A,A*56

$GPGLL,3818.9445,N,02638.1712,E,011941.000,A,A*51

$GPGLL,3818.9444,N,02638.1712,E,011942.000,A,A*53

$GPGLL,3818.9444,N,02638.1713,E,011943.000,A,A*53

$GPGLL,3818.9444,N,02638.1714,E,011944.000,A,A*53

$GPGLL,3818.9444,N,02638.1715,E,011945.000,A,A*53

$GPGLL,3818.9445,N,02638.1717,E,011946.000,A,A*53

$GPGLL,3818.9443,N,02638.1728,E,011947.000,A,A*58

$GPGLL,3818.9440,N,02638.1741,E,011948.000,A,A*5B

